header: 
  seq: 2324
  stamp: 
    secs: 1305031103
    nsecs:  27224950
  frame_id: ''
orientation: 
  x: 0.0
  y: 0.0
  z: 0.0
  w: 0.0
orientation_covariance: [-1.0, 0.0, 0.0, 0.0, 0.0, 0.0, 0.0, 0.0, 0.0]
angular_velocity: 
  x: 0.0
  y: 0.0
  z: 0.0
angular_velocity_covariance: [-1.0, 0.0, 0.0, 0.0, 0.0, 0.0, 0.0, 0.0, 0.0]
linear_acceleration: 
  x: 0.850149145299
  y: 7.23225470085
  z: -6.7054017094
linear_acceleration_covariance: [0.01, 0.0, 0.0, 0.0, 0.01, 0.0, 0.0, 0.0, 0.01]
---
header: 
  seq: 2576
  stamp: 
    secs: 1305031103
    nsecs: 531470631
  frame_id: ''
orientation: 
  x: 0.0
  y: 0.0
  z: 0.0
  w: 0.0
orientation_covariance: [-1.0, 0.0, 0.0, 0.0, 0.0, 0.0, 0.0, 0.0, 0.0]
angular_velocity: 
  x: 0.0
  y: 0.0
  z: 0.0
angular_velocity_covariance: [-1.0, 0.0, 0.0, 0.0, 0.0, 0.0, 0.0, 0.0, 0.0]
linear_acceleration: 
  x: 0.862123076923
  y: 6.88501068376
  z: -8.23806495726
linear_acceleration_covariance: [0.01, 0.0, 0.0, 0.0, 0.01, 0.0, 0.0, 0.0, 0.01]
---
header: 
  seq: 2824
  stamp: 
    secs: 1305031104
    nsecs:  27231249
  frame_id: ''
orientation: 
  x: 0.0
  y: 0.0
  z: 0.0
  w: 0.0
orientation_covariance: [-1.0, 0.0, 0.0, 0.0, 0.0, 0.0, 0.0, 0.0, 0.0]
angular_velocity: 
  x: 0.0
  y: 0.0
  z: 0.0
angular_velocity_covariance: [-1.0, 0.0, 0.0, 0.0, 0.0, 0.0, 0.0, 0.0, 0.0]
linear_acceleration: 
  x: 0.957914529915
  y: 6.52579273504
  z: -6.27434017094
linear_acceleration_covariance: [0.01, 0.0, 0.0, 0.0, 0.01, 0.0, 0.0, 0.0, 0.01]
---
header: 
  seq: 3075
  stamp: 
    secs: 1305031104
    nsecs: 528622352
  frame_id: ''
orientation: 
  x: 0.0
  y: 0.0
  z: 0.0
  w: 0.0
orientation_covariance: [-1.0, 0.0, 0.0, 0.0, 0.0, 0.0, 0.0, 0.0, 0.0]
angular_velocity: 
  x: 0.0
  y: 0.0
  z: 0.0
angular_velocity_covariance: [-1.0, 0.0, 0.0, 0.0, 0.0, 0.0, 0.0, 0.0, 0.0]
linear_acceleration: 
  x: 0.287374358974
  y: 7.0526457265
  z: -6.46592307692
linear_acceleration_covariance: [0.01, 0.0, 0.0, 0.0, 0.01, 0.0, 0.0, 0.0, 0.01]
---
header: 
  seq: 3325
  stamp: 
    secs: 1305031105
    nsecs:  29093808
  frame_id: ''
orientation: 
  x: 0.0
  y: 0.0
  z: 0.0
  w: 0.0
orientation_covariance: [-1.0, 0.0, 0.0, 0.0, 0.0, 0.0, 0.0, 0.0, 0.0]
angular_velocity: 
  x: 0.0
  y: 0.0
  z: 0.0
angular_velocity_covariance: [-1.0, 0.0, 0.0, 0.0, 0.0, 0.0, 0.0, 0.0, 0.0]
linear_acceleration: 
  x: 0.682514102564
  y: 8.29793461538
  z: -3.4005965812
linear_acceleration_covariance: [0.01, 0.0, 0.0, 0.0, 0.01, 0.0, 0.0, 0.0, 0.01]
---
header: 
  seq: 3573
  stamp: 
    secs: 1305031105
    nsecs: 526481373
  frame_id: ''
orientation: 
  x: 0.0
  y: 0.0
  z: 0.0
  w: 0.0
orientation_covariance: [-1.0, 0.0, 0.0, 0.0, 0.0, 0.0, 0.0, 0.0, 0.0]
angular_velocity: 
  x: 0.0
  y: 0.0
  z: 0.0
angular_velocity_covariance: [-1.0, 0.0, 0.0, 0.0, 0.0, 0.0, 0.0, 0.0, 0.0]
linear_acceleration: 
  x: 0.478957264957
  y: 6.66947991453
  z: -7.02869786325
linear_acceleration_covariance: [0.01, 0.0, 0.0, 0.0, 0.01, 0.0, 0.0, 0.0, 0.01]
---
header: 
  seq: 3824
  stamp: 
    secs: 1305031106
    nsecs:  27236559
  frame_id: ''
orientation: 
  x: 0.0
  y: 0.0
  z: 0.0
  w: 0.0
orientation_covariance: [-1.0, 0.0, 0.0, 0.0, 0.0, 0.0, 0.0, 0.0, 0.0]
angular_velocity: 
  x: 0.0
  y: 0.0
  z: 0.0
angular_velocity_covariance: [-1.0, 0.0, 0.0, 0.0, 0.0, 0.0, 0.0, 0.0, 0.0]
linear_acceleration: 
  x: 0.862123076923
  y: 6.9568542735
  z: -7.99858632479
linear_acceleration_covariance: [0.01, 0.0, 0.0, 0.0, 0.01, 0.0, 0.0, 0.0, 0.01]
---
header: 
  seq: 4071
  stamp: 
    secs: 1305031106
    nsecs: 527101556
  frame_id: ''
orientation: 
  x: 0.0
  y: 0.0
  z: 0.0
  w: 0.0
orientation_covariance: [-1.0, 0.0, 0.0, 0.0, 0.0, 0.0, 0.0, 0.0, 0.0]
angular_velocity: 
  x: 0.0
  y: 0.0
  z: 0.0
angular_velocity_covariance: [-1.0, 0.0, 0.0, 0.0, 0.0, 0.0, 0.0, 0.0, 0.0]
linear_acceleration: 
  x: 0.862123076923
  y: 6.86106282051
  z: -8.19016923077
linear_acceleration_covariance: [0.01, 0.0, 0.0, 0.0, 0.01, 0.0, 0.0, 0.0, 0.01]
---
header: 
  seq: 4321
  stamp: 
    secs: 1305031107
    nsecs:  27096002
  frame_id: ''
orientation: 
  x: 0.0
  y: 0.0
  z: 0.0
  w: 0.0
orientation_covariance: [-1.0, 0.0, 0.0, 0.0, 0.0, 0.0, 0.0, 0.0, 0.0]
angular_velocity: 
  x: 0.0
  y: 0.0
  z: 0.0
angular_velocity_covariance: [-1.0, 0.0, 0.0, 0.0, 0.0, 0.0, 0.0, 0.0, 0.0]
linear_acceleration: 
  x: 0.107765384615
  y: 6.86106282051
  z: -7.51962905983
linear_acceleration_covariance: [0.01, 0.0, 0.0, 0.0, 0.01, 0.0, 0.0, 0.0, 0.01]
---
header: 
  seq: 4573
  stamp: 
    secs: 1305031107
    nsecs: 531602002
  frame_id: ''
orientation: 
  x: 0.0
  y: 0.0
  z: 0.0
  w: 0.0
orientation_covariance: [-1.0, 0.0, 0.0, 0.0, 0.0, 0.0, 0.0, 0.0, 0.0]
angular_velocity: 
  x: 0.0
  y: 0.0
  z: 0.0
angular_velocity_covariance: [-1.0, 0.0, 0.0, 0.0, 0.0, 0.0, 0.0, 0.0, 0.0]
linear_acceleration: 
  x: 0.287374358974
  y: 6.81316709402
  z: -6.08275726496
linear_acceleration_covariance: [0.01, 0.0, 0.0, 0.0, 0.01, 0.0, 0.0, 0.0, 0.01]
---
header: 
  seq: 4823
  stamp: 
    secs: 1305031108
    nsecs:  32345989
  frame_id: ''
orientation: 
  x: 0.0
  y: 0.0
  z: 0.0
  w: 0.0
orientation_covariance: [-1.0, 0.0, 0.0, 0.0, 0.0, 0.0, 0.0, 0.0, 0.0]
angular_velocity: 
  x: 0.0
  y: 0.0
  z: 0.0
angular_velocity_covariance: [-1.0, 0.0, 0.0, 0.0, 0.0, 0.0, 0.0, 0.0, 0.0]
linear_acceleration: 
  x: -1.24528888889
  y: 7.63936837607
  z: -5.9031482906
linear_acceleration_covariance: [0.01, 0.0, 0.0, 0.0, 0.01, 0.0, 0.0, 0.0, 0.01]
---
header: 
  seq: 5072
  stamp: 
    secs: 1305031108
    nsecs: 531488951
  frame_id: ''
orientation: 
  x: 0.0
  y: 0.0
  z: 0.0
  w: 0.0
orientation_covariance: [-1.0, 0.0, 0.0, 0.0, 0.0, 0.0, 0.0, 0.0, 0.0]
angular_velocity: 
  x: 0.0
  y: 0.0
  z: 0.0
angular_velocity_covariance: [-1.0, 0.0, 0.0, 0.0, 0.0, 0.0, 0.0, 0.0, 0.0]
linear_acceleration: 
  x: -0.478957264957
  y: 7.43581153846
  z: -7.01672393162
linear_acceleration_covariance: [0.01, 0.0, 0.0, 0.0, 0.01, 0.0, 0.0, 0.0, 0.01]
---
header: 
  seq: 5321
  stamp: 
    secs: 1305031109
    nsecs:  31608459
  frame_id: ''
orientation: 
  x: 0.0
  y: 0.0
  z: 0.0
  w: 0.0
orientation_covariance: [-1.0, 0.0, 0.0, 0.0, 0.0, 0.0, 0.0, 0.0, 0.0]
angular_velocity: 
  x: 0.0
  y: 0.0
  z: 0.0
angular_velocity_covariance: [-1.0, 0.0, 0.0, 0.0, 0.0, 0.0, 0.0, 0.0, 0.0]
linear_acceleration: 
  x: 1.29318461538
  y: 6.90895854701
  z: -6.17854871795
linear_acceleration_covariance: [0.01, 0.0, 0.0, 0.0, 0.01, 0.0, 0.0, 0.0, 0.01]
---
header: 
  seq: 5571
  stamp: 
    secs: 1305031109
    nsecs: 535284154
  frame_id: ''
orientation: 
  x: 0.0
  y: 0.0
  z: 0.0
  w: 0.0
orientation_covariance: [-1.0, 0.0, 0.0, 0.0, 0.0, 0.0, 0.0, 0.0, 0.0]
angular_velocity: 
  x: 0.0
  y: 0.0
  z: 0.0
angular_velocity_covariance: [-1.0, 0.0, 0.0, 0.0, 0.0, 0.0, 0.0, 0.0, 0.0]
linear_acceleration: 
  x: 0.478957264957
  y: 7.19633290598
  z: -6.60961025641
linear_acceleration_covariance: [0.01, 0.0, 0.0, 0.0, 0.01, 0.0, 0.0, 0.0, 0.01]
---
header: 
  seq: 5819
  stamp: 
    secs: 1305031110
    nsecs:  30525696
  frame_id: ''
orientation: 
  x: 0.0
  y: 0.0
  z: 0.0
  w: 0.0
orientation_covariance: [-1.0, 0.0, 0.0, 0.0, 0.0, 0.0, 0.0, 0.0, 0.0]
angular_velocity: 
  x: 0.0
  y: 0.0
  z: 0.0
angular_velocity_covariance: [-1.0, 0.0, 0.0, 0.0, 0.0, 0.0, 0.0, 0.0, 0.0]
linear_acceleration: 
  x: 0.0598696581197
  y: 6.88501068376
  z: -7.8070034188
linear_acceleration_covariance: [0.01, 0.0, 0.0, 0.0, 0.01, 0.0, 0.0, 0.0, 0.01]
---
header: 
  seq: 6072
  stamp: 
    secs: 1305031110
    nsecs: 533621230
  frame_id: ''
orientation: 
  x: 0.0
  y: 0.0
  z: 0.0
  w: 0.0
orientation_covariance: [-1.0, 0.0, 0.0, 0.0, 0.0, 0.0, 0.0, 0.0, 0.0]
angular_velocity: 
  x: 0.0
  y: 0.0
  z: 0.0
angular_velocity_covariance: [-1.0, 0.0, 0.0, 0.0, 0.0, 0.0, 0.0, 0.0, 0.0]
linear_acceleration: 
  x: 0.107765384615
  y: 6.09473119658
  z: -7.13646324786
linear_acceleration_covariance: [0.01, 0.0, 0.0, 0.0, 0.01, 0.0, 0.0, 0.0, 0.01]
---
header: 
  seq: 6324
  stamp: 
    secs: 1305031111
    nsecs:  39114859
  frame_id: ''
orientation: 
  x: 0.0
  y: 0.0
  z: 0.0
  w: 0.0
orientation_covariance: [-1.0, 0.0, 0.0, 0.0, 0.0, 0.0, 0.0, 0.0, 0.0]
angular_velocity: 
  x: 0.0
  y: 0.0
  z: 0.0
angular_velocity_covariance: [-1.0, 0.0, 0.0, 0.0, 0.0, 0.0, 0.0, 0.0, 0.0]
linear_acceleration: 
  x: -0.478957264957
  y: 6.47789700855
  z: -8.19016923077
linear_acceleration_covariance: [0.01, 0.0, 0.0, 0.0, 0.01, 0.0, 0.0, 0.0, 0.01]
---
header: 
  seq: 6572
  stamp: 
    secs: 1305031111
    nsecs: 538489624
  frame_id: ''
orientation: 
  x: 0.0
  y: 0.0
  z: 0.0
  w: 0.0
orientation_covariance: [-1.0, 0.0, 0.0, 0.0, 0.0, 0.0, 0.0, 0.0, 0.0]
angular_velocity: 
  x: 0.0
  y: 0.0
  z: 0.0
angular_velocity_covariance: [-1.0, 0.0, 0.0, 0.0, 0.0, 0.0, 0.0, 0.0, 0.0]
linear_acceleration: 
  x: 0.287374358974
  y: 7.22028076923
  z: -6.84908888889
linear_acceleration_covariance: [0.01, 0.0, 0.0, 0.0, 0.01, 0.0, 0.0, 0.0, 0.01]
---
header: 
  seq: 6820
  stamp: 
    secs: 1305031112
    nsecs:  37660384
  frame_id: ''
orientation: 
  x: 0.0
  y: 0.0
  z: 0.0
  w: 0.0
orientation_covariance: [-1.0, 0.0, 0.0, 0.0, 0.0, 0.0, 0.0, 0.0, 0.0]
angular_velocity: 
  x: 0.0
  y: 0.0
  z: 0.0
angular_velocity_covariance: [-1.0, 0.0, 0.0, 0.0, 0.0, 0.0, 0.0, 0.0, 0.0]
linear_acceleration: 
  x: 0.287374358974
  y: 7.43581153846
  z: -5.98696581197
linear_acceleration_covariance: [0.01, 0.0, 0.0, 0.0, 0.01, 0.0, 0.0, 0.0, 0.01]
---
header: 
  seq: 7068
  stamp: 
    secs: 1305031112
    nsecs: 537710619
  frame_id: ''
orientation: 
  x: 0.0
  y: 0.0
  z: 0.0
  w: 0.0
orientation_covariance: [-1.0, 0.0, 0.0, 0.0, 0.0, 0.0, 0.0, 0.0, 0.0]
angular_velocity: 
  x: 0.0
  y: 0.0
  z: 0.0
angular_velocity_covariance: [-1.0, 0.0, 0.0, 0.0, 0.0, 0.0, 0.0, 0.0, 0.0]
linear_acceleration: 
  x: -0.0838175213675
  y: 7.6034465812
  z: -6.65750598291
linear_acceleration_covariance: [0.01, 0.0, 0.0, 0.0, 0.01, 0.0, 0.0, 0.0, 0.01]
---
header: 
  seq: 7318
  stamp: 
    secs: 1305031113
    nsecs:  38495821
  frame_id: ''
orientation: 
  x: 0.0
  y: 0.0
  z: 0.0
  w: 0.0
orientation_covariance: [-1.0, 0.0, 0.0, 0.0, 0.0, 0.0, 0.0, 0.0, 0.0]
angular_velocity: 
  x: 0.0
  y: 0.0
  z: 0.0
angular_velocity_covariance: [-1.0, 0.0, 0.0, 0.0, 0.0, 0.0, 0.0, 0.0, 0.0]
linear_acceleration: 
  x: 1.29318461538
  y: 6.57368846154
  z: -8.38175213675
linear_acceleration_covariance: [0.01, 0.0, 0.0, 0.0, 0.01, 0.0, 0.0, 0.0, 0.01]
---
header: 
  seq: 7566
  stamp: 
    secs: 1305031113
    nsecs: 536497727
  frame_id: ''
orientation: 
  x: 0.0
  y: 0.0
  z: 0.0
  w: 0.0
orientation_covariance: [-1.0, 0.0, 0.0, 0.0, 0.0, 0.0, 0.0, 0.0, 0.0]
angular_velocity: 
  x: 0.0
  y: 0.0
  z: 0.0
angular_velocity_covariance: [-1.0, 0.0, 0.0, 0.0, 0.0, 0.0, 0.0, 0.0, 0.0]
linear_acceleration: 
  x: 1.16147136752
  y: 6.66947991453
  z: -6.46592307692
linear_acceleration_covariance: [0.01, 0.0, 0.0, 0.0, 0.01, 0.0, 0.0, 0.0, 0.01]
---
header: 
  seq: 7817
  stamp: 
    secs: 1305031114
    nsecs:  37383742
  frame_id: ''
orientation: 
  x: 0.0
  y: 0.0
  z: 0.0
  w: 0.0
orientation_covariance: [-1.0, 0.0, 0.0, 0.0, 0.0, 0.0, 0.0, 0.0, 0.0]
angular_velocity: 
  x: 0.0
  y: 0.0
  z: 0.0
angular_velocity_covariance: [-1.0, 0.0, 0.0, 0.0, 0.0, 0.0, 0.0, 0.0, 0.0]
linear_acceleration: 
  x: 0.191582905983
  y: 6.66947991453
  z: -7.13646324786
linear_acceleration_covariance: [0.01, 0.0, 0.0, 0.0, 0.01, 0.0, 0.0, 0.0, 0.01]
---
header: 
  seq: 8068
  stamp: 
    secs: 1305031114
    nsecs: 538499654
  frame_id: ''
orientation: 
  x: 0.0
  y: 0.0
  z: 0.0
  w: 0.0
orientation_covariance: [-1.0, 0.0, 0.0, 0.0, 0.0, 0.0, 0.0, 0.0, 0.0]
angular_velocity: 
  x: 0.0
  y: 0.0
  z: 0.0
angular_velocity_covariance: [-1.0, 0.0, 0.0, 0.0, 0.0, 0.0, 0.0, 0.0, 0.0]
linear_acceleration: 
  x: -0.622644444444
  y: 6.66947991453
  z: -6.84908888889
linear_acceleration_covariance: [0.01, 0.0, 0.0, 0.0, 0.01, 0.0, 0.0, 0.0, 0.01]
---
header: 
  seq: 8399
  stamp: 
    secs: 1305031115
    nsecs: 206255648
  frame_id: ''
orientation: 
  x: 0.0
  y: 0.0
  z: 0.0
  w: 0.0
orientation_covariance: [-1.0, 0.0, 0.0, 0.0, 0.0, 0.0, 0.0, 0.0, 0.0]
angular_velocity: 
  x: 0.0
  y: 0.0
  z: 0.0
angular_velocity_covariance: [-1.0, 0.0, 0.0, 0.0, 0.0, 0.0, 0.0, 0.0, 0.0]
linear_acceleration: 
  x: -1.00581025641
  y: 6.47789700855
  z: -7.06461965812
linear_acceleration_covariance: [0.01, 0.0, 0.0, 0.0, 0.01, 0.0, 0.0, 0.0, 0.01]
---
header: 
  seq: 8680
  stamp: 
    secs: 1305031115
    nsecs: 771515706
  frame_id: ''
orientation: 
  x: 0.0
  y: 0.0
  z: 0.0
  w: 0.0
orientation_covariance: [-1.0, 0.0, 0.0, 0.0, 0.0, 0.0, 0.0, 0.0, 0.0]
angular_velocity: 
  x: 0.0
  y: 0.0
  z: 0.0
angular_velocity_covariance: [-1.0, 0.0, 0.0, 0.0, 0.0, 0.0, 0.0, 0.0, 0.0]
linear_acceleration: 
  x: 1.4488457265
  y: 6.28631410256
  z: -6.46592307692
linear_acceleration_covariance: [0.01, 0.0, 0.0, 0.0, 0.01, 0.0, 0.0, 0.0, 0.01]
---
header: 
  seq: 8962
  stamp: 
    secs: 1305031116
    nsecs: 342389350
  frame_id: ''
orientation: 
  x: 0.0
  y: 0.0
  z: 0.0
  w: 0.0
orientation_covariance: [-1.0, 0.0, 0.0, 0.0, 0.0, 0.0, 0.0, 0.0, 0.0]
angular_velocity: 
  x: 0.0
  y: 0.0
  z: 0.0
angular_velocity_covariance: [-1.0, 0.0, 0.0, 0.0, 0.0, 0.0, 0.0, 0.0, 0.0]
linear_acceleration: 
  x: 1.67635042735
  y: 5.51998247863
  z: -8.76491794872
linear_acceleration_covariance: [0.01, 0.0, 0.0, 0.0, 0.01, 0.0, 0.0, 0.0, 0.01]
---
header: 
  seq: 9226
  stamp: 
    secs: 1305031116
    nsecs: 871146550
  frame_id: ''
orientation: 
  x: 0.0
  y: 0.0
  z: 0.0
  w: 0.0
orientation_covariance: [-1.0, 0.0, 0.0, 0.0, 0.0, 0.0, 0.0, 0.0, 0.0]
angular_velocity: 
  x: 0.0
  y: 0.0
  z: 0.0
angular_velocity_covariance: [-1.0, 0.0, 0.0, 0.0, 0.0, 0.0, 0.0, 0.0, 0.0]
linear_acceleration: 
  x: 0.39513974359
  y: 5.66366965812
  z: -7.99858632479
linear_acceleration_covariance: [0.01, 0.0, 0.0, 0.0, 0.01, 0.0, 0.0, 0.0, 0.01]
---
header: 
  seq: 9478
  stamp: 
    secs: 1305031117
    nsecs: 373370307
  frame_id: ''
orientation: 
  x: 0.0
  y: 0.0
  z: 0.0
  w: 0.0
orientation_covariance: [-1.0, 0.0, 0.0, 0.0, 0.0, 0.0, 0.0, 0.0, 0.0]
angular_velocity: 
  x: 0.0
  y: 0.0
  z: 0.0
angular_velocity_covariance: [-1.0, 0.0, 0.0, 0.0, 0.0, 0.0, 0.0, 0.0, 0.0]
linear_acceleration: 
  x: 0.287374358974
  y: 7.14843717949
  z: -8.57333504274
linear_acceleration_covariance: [0.01, 0.0, 0.0, 0.0, 0.01, 0.0, 0.0, 0.0, 0.01]
---
header: 
  seq: 9826
  stamp: 
    secs: 1305031118
    nsecs:  78510672
  frame_id: ''
orientation: 
  x: 0.0
  y: 0.0
  z: 0.0
  w: 0.0
orientation_covariance: [-1.0, 0.0, 0.0, 0.0, 0.0, 0.0, 0.0, 0.0, 0.0]
angular_velocity: 
  x: 0.0
  y: 0.0
  z: 0.0
angular_velocity_covariance: [-1.0, 0.0, 0.0, 0.0, 0.0, 0.0, 0.0, 0.0, 0.0]
linear_acceleration: 
  x: 1.05370598291
  y: 6.47789700855
  z: -7.23225470085
linear_acceleration_covariance: [0.01, 0.0, 0.0, 0.0, 0.01, 0.0, 0.0, 0.0, 0.01]
---
header: 
  seq: 10209
  stamp: 
    secs: 1305031118
    nsecs: 846269918
  frame_id: ''
orientation: 
  x: 0.0
  y: 0.0
  z: 0.0
  w: 0.0
orientation_covariance: [-1.0, 0.0, 0.0, 0.0, 0.0, 0.0, 0.0, 0.0, 0.0]
angular_velocity: 
  x: 0.0
  y: 0.0
  z: 0.0
angular_velocity_covariance: [-1.0, 0.0, 0.0, 0.0, 0.0, 0.0, 0.0, 0.0, 0.0]
linear_acceleration: 
  x: 0.874097008547
  y: 4.95720769231
  z: -6.99277606838
linear_acceleration_covariance: [0.01, 0.0, 0.0, 0.0, 0.01, 0.0, 0.0, 0.0, 0.01]
---
header: 
  seq: 10575
  stamp: 
    secs: 1305031119
    nsecs: 577682909
  frame_id: ''
orientation: 
  x: 0.0
  y: 0.0
  z: 0.0
  w: 0.0
orientation_covariance: [-1.0, 0.0, 0.0, 0.0, 0.0, 0.0, 0.0, 0.0, 0.0]
angular_velocity: 
  x: 0.0
  y: 0.0
  z: 0.0
angular_velocity_covariance: [-1.0, 0.0, 0.0, 0.0, 0.0, 0.0, 0.0, 0.0, 0.0]
linear_acceleration: 
  x: 0.778305555556
  y: 6.57368846154
  z: -7.8070034188
linear_acceleration_covariance: [0.01, 0.0, 0.0, 0.0, 0.01, 0.0, 0.0, 0.0, 0.01]
---
header: 
  seq: 10874
  stamp: 
    secs: 1305031120
    nsecs: 177266370
  frame_id: ''
orientation: 
  x: 0.0
  y: 0.0
  z: 0.0
  w: 0.0
orientation_covariance: [-1.0, 0.0, 0.0, 0.0, 0.0, 0.0, 0.0, 0.0, 0.0]
angular_velocity: 
  x: 0.0
  y: 0.0
  z: 0.0
angular_velocity_covariance: [-1.0, 0.0, 0.0, 0.0, 0.0, 0.0, 0.0, 0.0, 0.0]
linear_acceleration: 
  x: 1.25726282051
  y: 6.81316709402
  z: -7.8070034188
linear_acceleration_covariance: [0.01, 0.0, 0.0, 0.0, 0.01, 0.0, 0.0, 0.0, 0.01]
---
header: 
  seq: 11158
  stamp: 
    secs: 1305031120
    nsecs: 746648543
  frame_id: ''
orientation: 
  x: 0.0
  y: 0.0
  z: 0.0
  w: 0.0
orientation_covariance: [-1.0, 0.0, 0.0, 0.0, 0.0, 0.0, 0.0, 0.0, 0.0]
angular_velocity: 
  x: 0.0
  y: 0.0
  z: 0.0
angular_velocity_covariance: [-1.0, 0.0, 0.0, 0.0, 0.0, 0.0, 0.0, 0.0, 0.0]
linear_acceleration: 
  x: 1.62845470085
  y: 6.81316709402
  z: -7.04067179487
linear_acceleration_covariance: [0.01, 0.0, 0.0, 0.0, 0.01, 0.0, 0.0, 0.0, 0.01]
---
header: 
  seq: 11440
  stamp: 
    secs: 1305031121
    nsecs: 312292612
  frame_id: ''
orientation: 
  x: 0.0
  y: 0.0
  z: 0.0
  w: 0.0
orientation_covariance: [-1.0, 0.0, 0.0, 0.0, 0.0, 0.0, 0.0, 0.0, 0.0]
angular_velocity: 
  x: 0.0
  y: 0.0
  z: 0.0
angular_velocity_covariance: [-1.0, 0.0, 0.0, 0.0, 0.0, 0.0, 0.0, 0.0, 0.0]
linear_acceleration: 
  x: 0.957914529915
  y: 7.34002008547
  z: -7.23225470085
linear_acceleration_covariance: [0.01, 0.0, 0.0, 0.0, 0.01, 0.0, 0.0, 0.0, 0.01]
---
header: 
  seq: 11774
  stamp: 
    secs: 1305031121
    nsecs: 982268883
  frame_id: ''
orientation: 
  x: 0.0
  y: 0.0
  z: 0.0
  w: 0.0
orientation_covariance: [-1.0, 0.0, 0.0, 0.0, 0.0, 0.0, 0.0, 0.0, 0.0]
angular_velocity: 
  x: 0.0
  y: 0.0
  z: 0.0
angular_velocity_covariance: [-1.0, 0.0, 0.0, 0.0, 0.0, 0.0, 0.0, 0.0, 0.0]
linear_acceleration: 
  x: 1.16147136752
  y: 5.13681666667
  z: -7.8070034188
linear_acceleration_covariance: [0.01, 0.0, 0.0, 0.0, 0.01, 0.0, 0.0, 0.0, 0.01]
---
header: 
  seq: 12039
  stamp: 
    secs: 1305031122
    nsecs: 512648110
  frame_id: ''
orientation: 
  x: 0.0
  y: 0.0
  z: 0.0
  w: 0.0
orientation_covariance: [-1.0, 0.0, 0.0, 0.0, 0.0, 0.0, 0.0, 0.0, 0.0]
angular_velocity: 
  x: 0.0
  y: 0.0
  z: 0.0
angular_velocity_covariance: [-1.0, 0.0, 0.0, 0.0, 0.0, 0.0, 0.0, 0.0, 0.0]
linear_acceleration: 
  x: 1.05370598291
  y: 6.47789700855
  z: -6.56171452991
linear_acceleration_covariance: [0.01, 0.0, 0.0, 0.0, 0.01, 0.0, 0.0, 0.0, 0.01]
---
header: 
  seq: 12288
  stamp: 
    secs: 1305031123
    nsecs:  12275905
  frame_id: ''
orientation: 
  x: 0.0
  y: 0.0
  z: 0.0
  w: 0.0
orientation_covariance: [-1.0, 0.0, 0.0, 0.0, 0.0, 0.0, 0.0, 0.0, 0.0]
angular_velocity: 
  x: 0.0
  y: 0.0
  z: 0.0
angular_velocity_covariance: [-1.0, 0.0, 0.0, 0.0, 0.0, 0.0, 0.0, 0.0, 0.0]
linear_acceleration: 
  x: 0.850149145299
  y: 6.09473119658
  z: -7.06461965812
linear_acceleration_covariance: [0.01, 0.0, 0.0, 0.0, 0.01, 0.0, 0.0, 0.0, 0.01]
---
header: 
  seq: 12539
  stamp: 
    secs: 1305031123
    nsecs: 516517091
  frame_id: ''
orientation: 
  x: 0.0
  y: 0.0
  z: 0.0
  w: 0.0
orientation_covariance: [-1.0, 0.0, 0.0, 0.0, 0.0, 0.0, 0.0, 0.0, 0.0]
angular_velocity: 
  x: 0.0
  y: 0.0
  z: 0.0
angular_velocity_covariance: [-1.0, 0.0, 0.0, 0.0, 0.0, 0.0, 0.0, 0.0, 0.0]
linear_acceleration: 
  x: 0.478957264957
  y: 6.66947991453
  z: -7.8070034188
linear_acceleration_covariance: [0.01, 0.0, 0.0, 0.0, 0.01, 0.0, 0.0, 0.0, 0.01]
---
header: 
  seq: 12789
  stamp: 
    secs: 1305031124
    nsecs:  18394036
  frame_id: ''
orientation: 
  x: 0.0
  y: 0.0
  z: 0.0
  w: 0.0
orientation_covariance: [-1.0, 0.0, 0.0, 0.0, 0.0, 0.0, 0.0, 0.0, 0.0]
angular_velocity: 
  x: 0.0
  y: 0.0
  z: 0.0
angular_velocity_covariance: [-1.0, 0.0, 0.0, 0.0, 0.0, 0.0, 0.0, 0.0, 0.0]
linear_acceleration: 
  x: 0.862123076923
  y: 6.57368846154
  z: -7.23225470085
linear_acceleration_covariance: [0.01, 0.0, 0.0, 0.0, 0.01, 0.0, 0.0, 0.0, 0.01]
---
header: 
  seq: 13036
  stamp: 
    secs: 1305031124
    nsecs: 516270189
  frame_id: ''
orientation: 
  x: 0.0
  y: 0.0
  z: 0.0
  w: 0.0
orientation_covariance: [-1.0, 0.0, 0.0, 0.0, 0.0, 0.0, 0.0, 0.0, 0.0]
angular_velocity: 
  x: 0.0
  y: 0.0
  z: 0.0
angular_velocity_covariance: [-1.0, 0.0, 0.0, 0.0, 0.0, 0.0, 0.0, 0.0, 0.0]
linear_acceleration: 
  x: 1.24528888889
  y: 6.47789700855
  z: -7.13646324786
linear_acceleration_covariance: [0.01, 0.0, 0.0, 0.0, 0.01, 0.0, 0.0, 0.0, 0.01]
---
header: 
  seq: 13287
  stamp: 
    secs: 1305031125
    nsecs:  17663336
  frame_id: ''
orientation: 
  x: 0.0
  y: 0.0
  z: 0.0
  w: 0.0
orientation_covariance: [-1.0, 0.0, 0.0, 0.0, 0.0, 0.0, 0.0, 0.0, 0.0]
angular_velocity: 
  x: 0.0
  y: 0.0
  z: 0.0
angular_velocity_covariance: [-1.0, 0.0, 0.0, 0.0, 0.0, 0.0, 0.0, 0.0, 0.0]
linear_acceleration: 
  x: 1.25726282051
  y: 7.24422863248
  z: -5.89117435897
linear_acceleration_covariance: [0.01, 0.0, 0.0, 0.0, 0.01, 0.0, 0.0, 0.0, 0.01]
---
header: 
  seq: 13538
  stamp: 
    secs: 1305031125
    nsecs: 518400348
  frame_id: ''
orientation: 
  x: 0.0
  y: 0.0
  z: 0.0
  w: 0.0
orientation_covariance: [-1.0, 0.0, 0.0, 0.0, 0.0, 0.0, 0.0, 0.0, 0.0]
angular_velocity: 
  x: 0.0
  y: 0.0
  z: 0.0
angular_velocity_covariance: [-1.0, 0.0, 0.0, 0.0, 0.0, 0.0, 0.0, 0.0, 0.0]
linear_acceleration: 
  x: 0.478957264957
  y: 6.09473119658
  z: -7.42383760684
linear_acceleration_covariance: [0.01, 0.0, 0.0, 0.0, 0.01, 0.0, 0.0, 0.0, 0.01]
---
header: 
  seq: 13805
  stamp: 
    secs: 1305031126
    nsecs:  53158562
  frame_id: ''
orientation: 
  x: 0.0
  y: 0.0
  z: 0.0
  w: 0.0
orientation_covariance: [-1.0, 0.0, 0.0, 0.0, 0.0, 0.0, 0.0, 0.0, 0.0]
angular_velocity: 
  x: 0.0
  y: 0.0
  z: 0.0
angular_velocity_covariance: [-1.0, 0.0, 0.0, 0.0, 0.0, 0.0, 0.0, 0.0, 0.0]
linear_acceleration: 
  x: 0.910018803419
  y: 5.51998247863
  z: -6.94488034188
linear_acceleration_covariance: [0.01, 0.0, 0.0, 0.0, 0.01, 0.0, 0.0, 0.0, 0.01]
---
header: 
  seq: 14056
  stamp: 
    secs: 1305031126
    nsecs: 556541611
  frame_id: ''
orientation: 
  x: 0.0
  y: 0.0
  z: 0.0
  w: 0.0
orientation_covariance: [-1.0, 0.0, 0.0, 0.0, 0.0, 0.0, 0.0, 0.0, 0.0]
angular_velocity: 
  x: 0.0
  y: 0.0
  z: 0.0
angular_velocity_covariance: [-1.0, 0.0, 0.0, 0.0, 0.0, 0.0, 0.0, 0.0, 0.0]
linear_acceleration: 
  x: 1.05370598291
  y: 6.86106282051
  z: -7.61542051282
linear_acceleration_covariance: [0.01, 0.0, 0.0, 0.0, 0.01, 0.0, 0.0, 0.0, 0.01]
---
header: 
  seq: 14304
  stamp: 
    secs: 1305031127
    nsecs:  51530889
  frame_id: ''
orientation: 
  x: 0.0
  y: 0.0
  z: 0.0
  w: 0.0
orientation_covariance: [-1.0, 0.0, 0.0, 0.0, 0.0, 0.0, 0.0, 0.0, 0.0]
angular_velocity: 
  x: 0.0
  y: 0.0
  z: 0.0
angular_velocity_covariance: [-1.0, 0.0, 0.0, 0.0, 0.0, 0.0, 0.0, 0.0, 0.0]
linear_acceleration: 
  x: 1.05370598291
  y: 6.46592307692
  z: -7.8548991453
linear_acceleration_covariance: [0.01, 0.0, 0.0, 0.0, 0.01, 0.0, 0.0, 0.0, 0.01]
---
header: 
  seq: 14553
  stamp: 
    secs: 1305031127
    nsecs: 551528508
  frame_id: ''
orientation: 
  x: 0.0
  y: 0.0
  z: 0.0
  w: 0.0
orientation_covariance: [-1.0, 0.0, 0.0, 0.0, 0.0, 0.0, 0.0, 0.0, 0.0]
angular_velocity: 
  x: 0.0
  y: 0.0
  z: 0.0
angular_velocity_covariance: [-1.0, 0.0, 0.0, 0.0, 0.0, 0.0, 0.0, 0.0, 0.0]
linear_acceleration: 
  x: 1.05370598291
  y: 5.9031482906
  z: -7.37594188034
linear_acceleration_covariance: [0.01, 0.0, 0.0, 0.0, 0.01, 0.0, 0.0, 0.0, 0.01]
---
header: 
  seq: 14804
  stamp: 
    secs: 1305031128
    nsecs:  55171739
  frame_id: ''
orientation: 
  x: 0.0
  y: 0.0
  z: 0.0
  w: 0.0
orientation_covariance: [-1.0, 0.0, 0.0, 0.0, 0.0, 0.0, 0.0, 0.0, 0.0]
angular_velocity: 
  x: 0.0
  y: 0.0
  z: 0.0
angular_velocity_covariance: [-1.0, 0.0, 0.0, 0.0, 0.0, 0.0, 0.0, 0.0, 0.0]
linear_acceleration: 
  x: 1.29318461538
  y: 6.09473119658
  z: -7.8548991453
linear_acceleration_covariance: [0.01, 0.0, 0.0, 0.0, 0.01, 0.0, 0.0, 0.0, 0.01]
---
header: 
  seq: 15054
  stamp: 
    secs: 1305031128
    nsecs: 553412219
  frame_id: ''
orientation: 
  x: 0.0
  y: 0.0
  z: 0.0
  w: 0.0
orientation_covariance: [-1.0, 0.0, 0.0, 0.0, 0.0, 0.0, 0.0, 0.0, 0.0]
angular_velocity: 
  x: 0.0
  y: 0.0
  z: 0.0
angular_velocity_covariance: [-1.0, 0.0, 0.0, 0.0, 0.0, 0.0, 0.0, 0.0, 0.0]
linear_acceleration: 
  x: 1.05370598291
  y: 6.19052264957
  z: -7.8070034188
linear_acceleration_covariance: [0.01, 0.0, 0.0, 0.0, 0.01, 0.0, 0.0, 0.0, 0.01]
---
